,city,cloudiness,country,humidity,latitude,longitude,max_temp,windspeed
0,Punta Arenas,0,CL,81,-53.16,-70.91,42.8,3.36
1,Hunchun,0,CN,36,42.86,130.36,57.55,3.27
2,Busselton,64,AU,77,-33.64,115.35,75.73,9.42
3,Yellowknife,90,CA,72,62.45,-114.38,15.8,11.41
4,Upernavik,8,GL,100,72.79,-56.15,3.1,13.78
5,Rikitea,76,PF,100,-23.12,-134.97,79.6,18.7
6,Qaanaaq,36,GL,79,77.48,-69.36,-4.55,7.96
7,Cidreira,36,BR,81,-30.17,-50.22,67.72,9.75
8,East London,0,ZA,88,-33.02,27.91,62.6,5.82
9,Hay River,90,CA,73,60.82,-115.79,19.4,5.82
10,Port Hedland,0,AU,16,-20.31,118.58,98.6,12.75
11,Chapais,90,CA,52,49.78,-74.86,19.4,16.11
12,Ushuaia,0,AR,61,-54.81,-68.31,46.4,2.48
13,Hobart,40,AU,30,-42.88,147.33,55.4,25.28
14,Albany,90,US,96,42.65,-73.75,32.0,8.63
15,Zhaozhou,0,CN,43,45.71,125.27,60.61,22.73
16,Mataura,0,NZ,67,-46.19,168.86,50.98,11.32
17,Nouadhibou,0,MR,87,20.93,-17.03,60.8,12.75
18,Tadine,12,NC,92,-21.55,167.88,79.6,16.35
19,Pevek,68,RU,85,69.7,170.27,27.67,13.11
20,Gat,0,SN,71,14.69,-16.54,66.82,9.75
21,Kattivakkam,40,IN,59,13.22,80.32,93.2,5.82
22,Cape Town,0,ZA,93,-33.93,18.42,53.6,1.12
23,Atuona,68,PF,100,-9.8,-139.03,81.4,19.71
24,Emerald,24,AU,43,-23.53,148.16,88.78,4.83
25,Avarua,20,CK,69,-21.21,-159.78,77.0,10.29
26,Muravlenko,68,RU,92,63.79,74.5,14.8,8.86
27,Mahibadhoo,0,MV,100,3.78,72.97,84.1,3.71
28,Kralendijk,80,BQ,78,12.15,-68.27,80.6,18.34
29,San Rafael,0,AR,83,-34.61,-68.33,50.98,6.62
30,Vila Franca do Campo,75,PT,87,37.72,-25.43,60.8,21.92
31,Hofn,92,IS,100,64.25,-15.21,40.18,16.8
32,Hadrut,92,AZ,95,39.52,47.03,36.67,2.59
33,Bluff,44,AU,41,-23.58,149.07,87.7,4.72
34,El Alto,75,BO,93,-16.5,-68.19,39.2,11.41
35,Barrow,36,AR,56,-38.31,-60.23,64.93,16.24
36,Cody,1,US,52,44.53,-109.06,42.8,6.93
37,Creel,0,MX,52,27.75,-107.63,43.51,3.04
38,Hit,0,IQ,69,33.64,42.83,64.12,8.75
39,Fairbanks,1,US,37,64.84,-147.72,37.4,10.29
40,Lavrentiya,92,RU,96,65.58,-170.99,32.53,19.82
41,Puerto Ayora,24,EC,100,-0.74,-90.35,71.86,4.5
42,At-Bashi,32,KG,48,41.17,75.81,52.33,3.6
43,Khatanga,0,RU,91,71.98,102.47,13.72,3.94
44,Vestmannaeyjar,88,IS,84,63.44,-20.27,44.68,25.86
45,Port Alfred,8,ZA,96,-33.59,26.89,68.53,11.21
46,Sao Filipe,0,CV,100,14.9,-24.5,68.44,13.22
47,Mar del Plata,48,AR,55,-46.43,-67.52,57.37,4.94
48,Cayenne,40,GF,83,4.94,-52.33,78.8,8.05
49,Hilo,90,US,88,19.71,-155.08,75.2,3.36
50,Arraial do Cabo,92,BR,98,-22.97,-42.02,74.2,7.18
51,San Cristobal,75,EC,93,-0.39,-78.55,51.8,5.82
52,Sosnovo-Ozerskoye,0,RU,43,52.53,111.54,41.62,12.44
53,Parrita,0,CR,73,9.52,-84.33,69.8,13.87
54,Belaya Gora,0,RU,95,68.54,146.19,21.28,5.95
55,Adrar,0,DZ,26,27.87,-0.29,55.4,6.93
56,Victoria,75,BN,79,5.28,115.24,89.6,2.24
57,Kapaa,90,US,88,22.08,-159.32,75.2,18.34
58,Tiksi,92,RU,90,71.64,128.87,22.27,13.44
59,Katsuura,75,JP,38,33.93,134.5,59.0,2.24
60,Ponta do Sol,88,BR,82,-20.63,-46.0,66.1,6.17
61,Hovd,0,NO,45,63.83,10.7,44.6,4.7
62,Vaini,8,IN,44,15.34,74.49,93.55,3.38
63,Revelstoke,75,CA,86,50.99,-118.19,41.0,10.29
64,Muroto,40,JP,42,33.37,134.14,64.4,11.41
65,Toora-Khem,0,RU,43,52.47,96.11,45.58,3.38
66,Abu Kamal,0,SY,35,34.45,40.92,63.94,6.96
67,Kruisfontein,0,ZA,84,-34.0,24.73,63.76,13.44
68,Bara,36,NG,79,10.41,10.6,77.44,12.88
69,Totma,24,RU,85,59.98,42.76,33.61,4.5
70,Florida,20,CU,88,21.53,-78.23,71.6,4.7
71,Saint George,75,GR,87,39.45,22.34,55.4,3.15
72,Clyde River,75,CA,77,70.47,-68.59,1.4,8.05
73,Lebu,0,ET,71,8.96,38.73,64.93,3.83
74,Okha,48,RU,93,53.59,142.95,36.4,5.5
75,Kulhudhuffushi,8,MV,100,6.62,73.07,85.63,8.41
76,Hermanus,0,ZA,85,-34.42,19.24,50.53,3.6
77,Buala,32,SB,81,-8.15,159.59,86.17,4.16
78,Beloha,0,MG,69,-25.17,45.06,77.98,5.73
79,Norman Wells,20,CA,64,65.28,-126.83,-0.41,3.36
80,Georgetown,92,GY,97,6.8,-58.16,73.03,2.82
81,Peniche,20,PT,93,39.36,-9.38,48.2,2.24
82,Mount Gambier,80,AU,78,-37.83,140.78,60.7,7.63
83,Bahia Blanca,36,AR,69,-38.72,-62.27,70.87,17.25
84,Clyde,0,NZ,57,-45.19,169.32,46.84,6.62
85,Cabo San Lucas,5,MX,68,22.89,-109.91,66.2,4.7
86,Chuy,12,UY,92,-33.69,-53.46,64.93,10.42
87,Tuktoyaktuk,20,CA,70,69.44,-133.03,5.0,11.41
88,Kieta,32,PG,86,-6.22,155.63,84.46,5.39
89,Iwanai,64,JP,97,42.97,140.51,41.26,15.68
90,Kolno,64,PL,66,53.41,21.93,59.17,9.53
91,Sungaipenuh,68,ID,97,-2.08,101.38,71.59,0.92
92,College,1,US,37,64.86,-147.8,37.4,10.29
93,Houston,1,US,31,29.76,-95.37,60.8,2.04
94,Ayagoz,92,KZ,49,47.96,80.43,59.62,21.72
95,Nikolskoye,0,RU,78,59.7,30.79,41.0,4.27
96,Saint-Philippe,90,CA,86,45.36,-73.48,32.0,17.22
97,Evanston,90,US,86,42.04,-87.69,30.2,12.75
98,Daru,92,SL,96,7.99,-10.85,72.31,2.93
99,Carnarvon,88,ZA,96,-30.97,22.13,57.01,8.52
100,Cururupu,48,BR,98,-1.82,-44.87,74.83,1.7
101,Kununurra,0,AU,25,-15.77,128.74,96.8,13.87
102,Pangnirtung,48,CA,67,66.15,-65.72,-0.68,5.61
103,Samarai,12,PG,99,-10.62,150.67,84.55,11.65
104,Santa Luzia,75,BR,88,-19.77,-43.85,64.4,4.7
105,Nome,1,US,76,30.04,-94.42,48.2,3.71
106,Jumla,48,NP,71,29.28,82.18,47.47,1.36
107,Luau,24,CD,94,-10.7,22.23,64.84,3.27
108,Lichinga,32,MZ,93,-13.3,35.25,65.92,5.61
109,Nanakuli,40,US,83,21.39,-158.15,77.0,4.7
110,Akure,92,NG,95,7.25,5.19,76.0,5.61
111,Egvekinot,80,RU,94,66.32,-179.17,31.72,10.2
112,Sergeyevka,88,KZ,80,53.88,67.42,40.0,15.68
113,Esperance,20,TT,94,10.24,-61.45,75.2,6.73
114,Udachnyy,0,RU,56,66.42,112.4,33.79,6.51
115,Willowmore,8,ZA,79,-33.3,23.49,48.37,2.15
116,Leningradskiy,88,RU,97,69.38,178.42,28.03,29.89
117,La Ronge,90,CA,94,55.1,-105.3,32.0,9.17
118,Chokurdakh,44,RU,91,70.62,147.9,14.08,9.75
119,San Patricio,0,PY,94,-26.98,-56.83,67.0,2.71
120,Jamestown,76,AU,73,-33.21,138.6,65.02,9.98
121,Provideniya,88,RU,91,64.42,-173.23,32.17,22.28
122,Alihe,24,CN,43,50.57,123.73,57.55,5.61
123,Padang,36,ID,100,-0.92,100.36,81.4,7.52
124,Hualmay,8,PE,92,-11.1,-77.61,62.41,3.6
125,Constitucion,0,MX,51,23.99,-104.67,47.02,3.6
126,Xining,0,CN,25,36.62,101.77,58.54,2.82
127,Deputatskiy,0,RU,89,69.3,139.9,24.97,3.94
128,Port Elizabeth,90,US,93,39.31,-74.98,57.2,13.87
129,Doha,75,QA,54,25.29,51.53,80.6,10.29
130,Salinopolis,100,BR,100,-0.61,-47.36,80.41,8.41
131,Kodiak,90,US,80,39.95,-94.76,30.2,13.87
132,Klaksvik,88,FO,100,62.23,-6.59,42.8,24.16
133,Hithadhoo,76,MV,100,-0.6,73.08,82.75,5.5
134,Tual,64,ID,100,-5.67,132.75,84.55,8.86
135,Sitka,8,US,61,37.17,-99.65,30.82,7.74
136,Manokwari,44,ID,100,-0.87,134.08,83.38,4.05
137,Christchurch,0,NZ,33,-43.53,172.64,62.6,9.17
138,Puerto Escondido,12,MX,100,15.86,-97.07,83.56,7.07
139,New Norfolk,40,AU,30,-42.78,147.06,55.4,25.28
140,Lompoc,1,US,87,34.64,-120.46,53.6,2.93
141,Damghan,92,IR,100,36.17,54.34,40.63,6.4
142,Betong,20,MY,70,5.77,101.07,89.41,3.38
143,Maldonado,0,UY,87,-34.91,-54.96,60.8,4.7
144,Atar,0,MR,62,20.52,-13.05,53.41,2.82
145,Flin Flon,76,CA,68,54.77,-101.88,32.98,7.74
146,Ahipara,0,NZ,93,-35.17,173.16,66.73,10.98
147,Mahebourg,75,MU,78,-20.41,57.7,80.6,11.41
148,Chon Daen,68,TH,81,16.19,100.86,82.48,4.61
149,Kavieng,24,PG,100,-2.57,150.8,86.08,8.19
150,Nishihara,75,JP,36,35.74,139.53,64.4,5.95
151,Luderitz,0,NA,79,-26.65,15.16,64.75,5.06
152,Sawakin,0,SD,54,19.1,37.33,78.8,8.05
153,Great Yarmouth,40,GB,93,52.61,1.73,46.4,6.93
154,Jiamusi,24,CN,64,46.81,130.37,55.57,10.76
155,Berlevag,0,NO,100,70.86,29.09,32.0,1.12
156,Shelburne,90,CA,100,44.08,-80.2,33.8,24.16
157,Tasiilaq,92,GL,74,65.61,-37.64,37.4,17.22
158,Grand Gaube,75,MU,78,-20.01,57.66,80.6,11.41
159,Westport,75,IE,93,53.8,-9.52,42.8,10.29
160,Lerwick,75,GB,93,60.15,-1.15,44.6,14.99
161,Zabaykalsk,0,CN,54,49.64,117.33,58.09,14.0
162,Vostok,36,RU,57,46.45,135.83,44.32,5.39
163,Faanui,88,PF,97,-16.48,-151.75,83.74,14.0
164,Thompson,40,CA,33,55.74,-97.86,30.2,3.36
165,Bonavista,0,CA,97,48.65,-53.11,27.04,24.52
166,Hamilton,90,CA,100,43.26,-79.87,33.8,25.28
167,Port Macquarie,0,AU,32,-31.43,152.91,84.2,6.93
168,Tomatlan,0,MX,85,19.93,-105.25,62.32,2.37
169,Alofi,0,NU,69,-19.06,-169.92,77.0,10.29
170,Butaritari,32,KI,100,3.07,172.79,82.39,7.18
171,Pontes e Lacerda,56,BR,96,-15.23,-59.33,69.88,2.71
172,Dumai,76,ID,87,1.68,101.45,81.4,4.61
173,Vannes,40,FR,93,47.66,-2.76,48.2,5.82
174,Saldanha,0,PT,91,41.42,-6.55,34.42,4.16
175,Hwange,0,ZW,53,-18.35,26.5,67.72,10.65
176,Bethel,90,US,100,60.79,-161.76,37.4,4.7
177,Mihaileni,0,RO,87,47.97,26.15,51.8,5.82
178,Bredasdorp,0,ZA,88,-34.53,20.04,64.4,10.29
179,Rundu,76,NA,50,-17.91,19.77,76.27,6.4
180,Lugovoy,80,RU,89,59.72,65.88,26.68,8.3
181,Thanh Hoa,56,VN,74,10.21,106.33,88.15,9.42
182,Gulariya,0,IN,23,28.2,81.35,96.7,4.38
183,Hervey Bay,0,AU,91,-25.3,152.85,78.07,5.17
184,Airai,20,TL,62,-8.93,125.41,82.66,2.59
185,Sorland,0,NO,80,67.67,12.69,41.0,5.82
186,Jackville,40,CI,94,5.21,-4.42,80.6,4.7
187,Erzin,0,TR,55,36.95,36.2,68.0,3.36
188,Bambous Virieux,75,MU,78,-20.34,57.76,80.6,11.41
189,Mishelevka,0,RU,62,52.86,103.17,49.54,4.61
190,Ribeira Grande,92,PT,93,38.52,-28.7,64.57,38.16
191,Tilichiki,64,RU,87,60.47,166.1,29.74,10.2
192,Duluth,90,US,79,46.77,-92.13,26.6,24.16
193,Hasaki,75,JP,51,35.73,140.83,62.6,13.87
194,Hami,0,CN,35,42.84,93.51,74.83,5.73
195,Charters Towers,8,AU,73,-20.07,146.27,80.32,10.65
196,Bowen,92,AU,69,-20.01,148.25,82.4,10.29
197,Aklavik,5,CA,47,68.22,-135.01,12.2,6.93
198,Ewa Beach,90,US,94,21.32,-158.01,77.0,9.17
199,Komsomolskiy,68,RU,85,67.55,63.78,8.77,15.23
200,Saint Anthony,1,US,40,43.97,-111.68,51.8,11.41
201,Morant Bay,20,JM,74,17.88,-76.41,80.6,14.99
202,Jilib,0,SO,67,0.49,42.79,86.35,8.75
203,Vanimo,0,PG,100,-2.67,141.3,83.11,5.17
204,Ancud,92,CL,96,-41.87,-73.83,59.53,12.33
205,Lagoa,0,PT,93,37.14,-8.45,50.0,2.24
206,Zhongshu,92,CN,93,24.52,103.77,53.23,4.94
207,Nizhnyaya Tavda,20,RU,98,57.67,66.17,29.11,15.79
208,Taihe,76,CN,66,26.8,114.92,64.48,5.73
209,Assomada,0,CV,77,15.1,-23.68,66.2,10.29
210,Aldama,0,MX,97,22.92,-98.09,69.16,8.63
211,Baruun-Urt,48,MN,40,46.68,113.28,59.71,7.52
212,Taksimo,12,RU,39,56.36,114.84,32.53,4.27
213,Port Blair,0,IN,100,11.67,92.75,85.18,4.83
214,Batagay-Alyta,88,RU,86,67.8,130.41,37.84,3.6
215,Te Anau,12,NZ,80,-45.41,167.72,46.48,10.98
216,Nanuque,36,BR,94,-17.84,-40.35,69.16,5.95
217,Banda Aceh,64,ID,91,5.56,95.32,83.38,1.14
218,Codrington,0,AU,65,-28.95,153.24,77.44,2.71
219,Newport,75,GB,93,51.59,-3.0,46.4,8.05
220,Maracaibo,75,CO,94,3.41,-75.78,69.8,4.7
221,Kirkwood,32,ZA,93,-33.4,25.44,60.8,5.82
222,Durant,1,US,60,33.99,-96.37,41.0,9.53
223,Port Augusta,90,AU,77,-32.49,137.76,68.0,13.87
224,Vanavara,88,RU,68,60.35,102.28,34.15,8.75
225,Mapimi,0,MX,23,25.82,-103.85,45.67,4.16
226,Oktyabrskiy,32,RU,66,55.61,37.97,48.2,4.47
227,Kathmandu,20,NP,41,27.71,85.32,78.8,4.7
228,Comodoro Rivadavia,0,AR,68,-45.87,-67.48,64.4,8.05
229,Talnakh,80,RU,100,69.49,88.39,24.16,3.71
230,Regina,90,CA,80,50.45,-104.62,30.2,23.04
231,Krasnyy Profintern,0,RU,96,57.74,40.44,42.07,4.72
232,Hambantota,32,LK,100,6.12,81.12,85.09,9.42
233,Namibe,92,AO,100,-15.19,12.15,78.43,3.71
234,Guerrero Negro,0,MX,92,27.97,-114.04,53.32,5.5
235,Shellbrook,90,CA,74,53.22,-106.39,33.8,16.11
236,Kavaratti,12,IN,100,10.57,72.64,85.99,8.75
237,Iskateley,32,RU,98,67.68,53.15,12.55,11.77
238,Pryluky,48,UA,77,50.6,32.39,57.55,9.31
239,Nueva Gerona,92,CU,100,21.88,-82.8,73.12,5.73
240,Victorville,1,US,19,34.54,-117.29,69.8,6.93
241,Sao Felix do Xingu,68,BR,100,-6.64,-51.99,71.05,1.81
242,Agaro,0,ET,53,7.86,36.59,71.5,3.15
243,Hotaka,20,JP,44,36.34,137.88,57.2,13.87
244,Mossendjo,88,CG,98,-2.95,12.72,70.33,2.71
245,Kinablangan,48,PH,100,7.69,126.55,81.85,7.96
246,Chingirlau,0,KZ,79,51.09,54.08,47.92,8.19
247,Beisfjord,0,NO,86,68.38,17.6,28.4,1.12
248,Yurla,8,RU,72,59.33,54.32,30.64,9.75
249,Dunedin,0,NZ,52,-45.87,170.5,51.7,10.2
250,Tura,0,IN,71,25.52,90.21,80.32,8.63
251,Bay City,90,US,90,43.59,-83.89,33.8,17.47
252,Ixtapa,5,MX,100,20.71,-105.21,68.0,1.92
253,Antalaha,92,MG,100,-14.9,50.28,74.83,11.21
254,Cherskiy,36,RU,70,68.75,161.3,22.63,5.39
255,Awjilah,32,LY,14,29.14,21.3,95.08,14.23
256,Castro,92,CL,96,-42.48,-73.76,58.63,10.09
257,Geraldton,90,CA,67,49.72,-86.95,17.6,18.34
258,Imeni Poliny Osipenko,12,RU,31,52.42,136.49,54.13,10.2
259,Yar-Sale,88,RU,98,66.83,70.83,14.98,14.9
260,Pinega,24,RU,71,64.7,43.39,34.42,3.6
261,Faya,0,SA,40,18.39,42.45,68.0,9.17
262,Torbay,40,CA,68,47.66,-52.73,26.6,17.22
263,Lorengau,0,PG,94,-2.02,147.27,85.99,9.19
264,Kutum,0,SD,17,14.2,24.66,72.58,10.31
265,Caravelas,64,BR,100,-17.73,-39.27,79.6,9.42
266,Lata,92,IN,92,30.78,78.62,53.41,1.25
267,Sur,0,OM,85,22.57,59.53,82.75,1.36
268,Flinders,40,AU,43,-34.58,150.85,73.4,11.41
269,Omboue,92,GA,100,-1.57,9.26,81.49,1.36
270,Gidole,80,ET,95,5.65,37.37,67.36,3.04
271,Kawalu,32,ID,60,-7.38,108.21,81.94,2.37
272,Sioux Lookout,90,CA,42,50.1,-91.92,28.4,3.36
273,Laukaa,75,FI,94,62.42,25.95,39.2,3.36
274,Longyearbyen,75,NO,85,78.22,15.63,24.8,2.24
275,Port-Gentil,40,GA,94,-0.72,8.78,78.8,4.7
276,Poum,90,MK,36,41.28,20.71,60.8,9.17
277,Tuatapere,8,NZ,96,-46.13,167.69,53.86,14.45
278,Carros,0,FR,62,43.78,7.19,55.4,9.17
279,Pasighat,12,IN,61,28.06,95.33,74.2,2.04
280,Cedar City,1,US,11,37.68,-113.06,60.8,19.46
281,Mersing,32,MY,100,2.43,103.84,83.29,6.4
282,Tumarbong,0,PH,89,10.38,119.46,85.72,11.54
283,Nemuro,20,JP,45,43.32,145.57,42.8,10.29
284,Deori Khas,0,IN,31,23.39,79.03,100.21,5.61
285,Dali,44,CN,51,25.6,100.24,69.25,2.37
286,Severo-Kurilsk,88,RU,100,50.68,156.12,29.47,20.27
287,Kaffrine,0,SN,46,14.1,-15.55,70.42,8.63
288,Nanortalik,0,GL,100,60.14,-45.24,24.88,10.76
289,San Quintin,20,PH,66,17.54,120.52,87.8,9.17
290,Yerbogachen,80,RU,56,61.28,108.01,36.4,8.3
291,Mount Isa,0,AU,21,-20.73,139.49,91.4,11.41
292,Myra,76,NO,100,58.75,8.86,41.17,2.37
293,Mackay,90,CA,96,53.65,-115.58,32.0,2.24
294,Ballina,75,IE,93,54.11,-9.15,42.8,10.29
295,Acapulco,5,MX,83,16.86,-99.88,78.8,4.94
296,Gigmoto,8,PH,90,13.78,124.39,84.28,10.76
297,Skibbereen,20,IE,93,51.55,-9.27,42.8,9.17
298,Brownsville,40,US,55,25.91,-97.49,62.6,8.05
299,Ambad,0,IN,33,19.61,75.79,96.07,6.4
300,Fortuna,75,ES,76,38.18,-1.13,59.0,8.05
301,Abbeville,90,FR,87,50.11,1.83,50.0,5.82
302,Tonota,0,BW,93,-21.44,27.46,59.0,5.82
303,Augustow,68,PL,74,53.84,22.98,56.92,4.72
304,Kaitangata,0,NZ,56,-46.28,169.85,53.14,16.69
305,Rio Gallegos,90,AR,87,-51.62,-69.22,46.4,2.24
306,Svetlaya,56,RU,74,46.54,138.33,42.79,7.52
307,Masuda,75,JP,67,34.68,131.85,60.8,9.17
308,Dothan,1,US,65,31.22,-85.39,51.8,9.17
309,Yining,56,CN,51,29.04,114.56,65.74,3.6
310,Le Port,88,FR,100,42.87,1.37,39.28,1.7
311,Verkhoyansk,32,RU,74,67.55,133.39,39.1,3.71
312,Dikson,68,RU,95,73.51,80.55,6.43,21.61
313,Ishigaki,75,JP,77,24.34,124.16,68.0,14.99
314,Vardo,90,US,93,39.62,-77.74,42.8,11.41
315,Celestun,0,MX,100,20.87,-90.4,74.56,20.71
316,Seversk,92,RU,96,56.6,84.88,37.12,7.85
317,Nago,20,IT,93,45.88,10.89,51.8,5.82
318,Soanierana Ivongo,92,MG,100,-16.92,49.59,74.38,8.52
319,Kampot,36,KH,73,10.62,104.18,89.86,4.16
320,Rabo de Peixe,75,PT,87,37.8,-25.58,60.8,21.92
321,Shenjiamen,20,CN,94,29.96,122.3,55.75,10.76
322,Deyang,0,CN,44,31.12,104.39,73.66,7.96
323,Fort Dodge,90,US,85,42.5,-94.17,24.8,13.87
324,Formosa,0,AR,100,-26.19,-58.17,68.0,2.24
325,Atuntaqui,24,EC,100,0.33,-78.22,41.26,1.7
326,Tiznit,0,MA,94,29.7,-9.73,52.33,0.36
327,Makushino,88,RU,79,55.21,67.25,38.47,14.0
328,Rock Sound,44,BS,98,24.9,-76.2,78.61,21.72
329,Vung Tau,40,VN,49,10.35,107.08,93.2,4.7
330,Tres Arroyos,36,AR,56,-38.38,-60.28,64.93,16.24
331,Bikaner,0,IN,29,28.02,73.32,94.18,6.62
332,Roros,0,NO,79,62.57,11.38,24.8,3.36
333,Soyo,36,AO,94,-6.13,12.37,75.46,3.6
334,Quang Ngai,88,VN,92,15.12,108.8,75.82,3.15
335,Olden,0,NO,93,61.84,6.81,41.0,1.12
336,Cartagena,0,ES,67,37.63,-1.0,59.0,9.17
337,Esqueda,0,MX,25,30.72,-109.59,51.34,5.61
338,Huadian,0,CN,51,42.97,126.75,55.93,9.64
339,Tougue,12,GN,71,11.45,-11.68,67.72,0.92
340,Olinda,40,EC,50,-2.03,-79.75,75.2,9.17
341,Roald,0,NO,93,62.58,6.12,41.0,8.05
342,Emborion,40,GR,76,40.48,21.55,51.8,3.15
343,Saint-Augustin,90,FR,93,44.83,-0.61,51.8,2.24
344,Rawson,20,AR,53,-43.3,-65.11,70.6,15.46
345,Aurillac,90,FR,100,44.93,2.44,44.6,2.93
346,Aykhal,20,RU,71,65.95,111.51,31.63,9.31
347,Anloga,20,GH,88,5.79,0.9,80.6,5.82
348,Atambua,12,ID,87,-9.11,124.89,87.16,4.72
349,Waddan,0,LY,42,29.16,16.14,63.67,9.64
350,Sao Borja,64,BR,85,-28.66,-56.0,68.8,11.21
351,Phan Thiet,12,VN,74,10.93,108.1,87.43,16.35
352,Ferma,80,GR,91,35.02,25.86,66.37,10.42
353,Lagos,40,NG,100,6.46,3.39,77.0,8.86
354,Mashivka,48,UA,53,49.44,34.87,58.09,7.63
355,Amalapuram,0,IN,59,16.58,82.0,94.09,4.72
356,Riyadh,0,SA,27,24.63,46.72,77.0,11.41
357,Saskylakh,0,RU,92,71.97,114.09,20.65,9.42
358,Soloneshnoye,76,RU,36,51.65,84.32,46.84,2.93
359,Cap Malheureux,75,MU,78,-19.98,57.61,80.6,11.41
360,Bucerias,5,MX,100,20.76,-105.33,68.0,4.72
361,Springbok,92,ZA,95,-29.67,17.88,57.91,3.49
362,Kahului,40,US,83,20.89,-156.47,75.2,19.46
363,Morgan City,1,US,62,29.7,-91.21,53.6,5.82
364,Papetoai,40,PF,65,-17.5,-149.87,80.6,8.05
365,Koygorodok,56,RU,63,60.44,51.01,31.27,6.29
366,Zabid,0,YE,30,14.2,44.5,69.97,3.83
367,Coihaique,0,CL,93,-45.58,-72.07,53.6,3.36
368,Neiafu,40,TO,61,-18.65,-173.98,78.8,9.17
369,Tanabe,75,JP,51,33.73,135.39,60.8,17.22
370,Yelan,0,RU,63,50.95,43.74,51.7,4.94
371,Walvis Bay,75,NA,82,-22.95,14.51,62.6,1.12
372,Husavik,0,CA,60,50.56,-96.99,22.18,8.97
373,Salalah,40,OM,70,17.01,54.1,84.2,9.17
374,Turukhansk,76,RU,100,65.8,87.96,22.27,9.75
375,Akdepe,0,TM,35,42.05,59.39,55.4,13.87
376,Denpasar,12,ID,100,-8.65,115.22,79.15,1.59
377,High Level,90,CA,68,58.52,-117.13,24.8,14.99
378,Bela,0,PK,18,26.23,66.31,87.52,9.75
379,Ostrovnoy,80,RU,100,68.05,39.51,28.3,6.4
380,Maceio,75,BR,94,-9.67,-35.74,73.4,2.24
381,Nortelandia,36,BR,93,-14.45,-56.8,68.8,3.38
382,Dukat,68,RS,45,42.44,22.31,59.35,1.92
383,Iranshahr,0,IR,22,27.21,60.69,80.6,3.15
384,Trinidad,0,UY,94,-33.52,-56.9,61.6,10.98
385,Mumford,24,GH,95,5.26,-0.76,77.53,6.85
386,Bonnyville,90,CA,100,54.27,-110.74,33.8,6.93
387,Huarmey,8,PE,88,-10.07,-78.15,59.26,3.04
388,Bac,40,RS,77,45.39,19.24,60.8,6.93
389,Sinnamary,92,GF,97,5.38,-52.96,79.15,14.45
390,Margate,40,AU,30,-43.03,147.26,55.4,25.28
391,Auki,24,NG,81,12.18,6.51,68.62,2.93
392,Shu,76,KZ,67,43.6,73.76,58.09,8.97
393,Alyangula,76,AU,81,-13.85,136.42,90.22,17.92
394,Yumaguzino,20,RU,91,52.9,56.39,40.9,4.38
395,Vitim,32,RU,53,59.44,112.57,37.75,5.17
396,Tucupita,80,VE,83,9.06,-62.05,78.25,6.73
397,Isangel,76,VU,100,-19.55,169.27,78.07,17.92
398,Sao Joao da Barra,92,BR,100,-21.64,-41.05,72.31,8.75
399,Mier,0,IT,87,46.13,12.19,60.8,3.36
400,Klyuchi,24,RU,58,52.25,79.17,51.88,14.79
401,Mandalgovi,20,MN,43,45.76,106.27,63.04,10.65
402,Zaozerne,76,UA,79,51.37,23.94,62.05,4.16
403,Antofagasta,40,CL,87,-23.65,-70.4,59.0,9.17
404,Barentu,0,ER,17,15.11,37.59,83.2,4.16
405,Narsaq,5,GL,35,60.91,-46.05,26.6,10.29
406,Payo,12,ID,98,-3.75,103.64,84.73,2.82
407,Evensk,36,RU,94,61.92,159.24,29.2,5.5
408,Gizo,40,IL,77,31.8,34.94,66.2,2.24
409,Villa Bruzual,64,VE,94,9.33,-69.12,69.25,1.81
410,Souillac,92,FR,100,45.6,-0.6,48.2,1.12
411,Inuvik,5,CA,47,68.36,-133.71,12.2,6.93
412,Vangaindrano,100,MG,100,-23.35,47.6,68.35,3.38
413,Grindavik,75,IS,87,63.84,-22.43,46.4,11.41
414,Pozo Colorado,56,PY,85,-23.49,-58.8,72.85,5.06
415,Shimorskoye,0,RU,71,55.33,42.04,51.7,4.16
416,Borogontsy,36,RU,48,62.67,131.17,46.84,3.71
417,Rio Grande,12,BR,91,-32.03,-52.1,69.34,13.78
418,Shar,44,NG,90,7.3,8.73,76.27,11.65
419,Victoria,75,BN,79,5.28,115.24,89.6,2.24
420,Boueni,40,YT,74,-12.9,45.08,86.0,11.41
421,Dakar,0,SN,93,14.69,-17.45,64.4,9.17
422,Coahuayana,0,MX,70,18.62,-100.35,62.5,0.81
423,Xinzhou,0,CN,64,38.41,112.73,62.05,2.15
424,Ampanihy,0,MG,67,-24.69,44.75,75.28,4.61
425,Lai,24,CN,40,27.82,91.75,55.03,1.59
426,Itarema,76,BR,97,-2.92,-39.92,74.65,2.82
427,Marienburg,0,DE,100,52.12,9.98,51.8,3.36
428,Aswan,0,EG,17,24.09,32.9,73.4,5.82
429,Straubing,20,DE,100,48.88,12.57,51.8,9.75
430,Koboko,92,UG,78,3.41,30.96,72.4,5.28
431,Oktyabrskoye,92,RU,100,56.73,85.44,37.39,8.52
432,Zheleznodorozhnyy,32,RU,66,55.75,38.0,48.2,4.47
433,Pangody,68,RU,95,65.85,74.49,14.08,12.21
434,Karratha,20,AU,11,-20.74,116.85,100.93,4.83
435,Kolondieba,24,ML,60,11.09,-6.89,69.52,4.16
436,Saint-Joseph,0,FR,76,43.56,6.97,55.4,5.82
437,Sao Gabriel da Cachoeira,32,BR,97,-0.13,-67.09,71.32,2.15
438,Presidencia Roque Saenz Pena,0,AR,95,-26.79,-60.44,69.61,4.72
439,Zabol,64,IR,42,31.03,61.49,68.0,21.92
440,Ilo,0,PE,93,-17.65,-71.34,55.84,2.15
441,Fort Morgan,1,US,74,40.25,-103.8,33.8,8.05
442,Aksarka,76,RU,94,66.56,67.8,13.27,16.02
443,Zhuhai,0,CN,16,40.71,112.04,62.6,15.66
444,La Palma,76,CO,99,5.36,-74.39,64.93,2.48
445,Haines Junction,76,CA,86,60.75,-137.51,20.02,2.15
446,Iturama,76,BR,74,-19.73,-50.2,72.67,10.42
447,Vavuniya,8,LK,73,8.76,80.5,91.3,5.39
448,Iqaluit,40,CA,84,63.75,-68.52,1.4,4.7
449,Nouakchott,0,MR,93,18.08,-15.98,67.72,13.89
450,Sungairaya,68,ID,85,0.7,108.9,84.01,4.38
451,Avon,90,US,87,41.45,-82.04,46.4,11.41
452,Port Lincoln,92,AU,88,-34.72,135.86,66.1,11.21
453,Kargala,92,RU,98,56.62,83.96,35.95,9.31
454,Gyomaendrod,0,HU,72,46.93,20.83,64.4,6.93
455,Rosetta,0,EG,87,31.4,30.42,60.8,2.24
456,Cabra,56,ES,100,37.47,-4.43,48.2,3.36
457,Sisimiut,12,GL,56,66.94,-53.67,-6.08,1.48
458,Waipawa,8,NZ,85,-39.94,176.59,56.02,21.5
459,Torbat-e Jam,92,IR,99,35.24,60.63,45.67,5.39
460,Schitu-Duca,0,RO,41,47.03,27.77,59.0,13.87
461,Ilulissat,0,GL,72,69.22,-51.1,12.2,2.24
462,Sabha,0,LY,37,27.03,14.43,62.14,7.74
463,Tolmachevo,48,RU,66,55.36,38.22,48.2,4.47
464,Wanaka,0,NZ,57,-44.7,169.14,46.84,6.62
465,Eskisehir,0,TR,75,39.78,30.52,41.0,4.27
466,Normandin,90,CA,52,48.84,-72.53,19.4,3.36
467,Pisco,0,PE,88,-13.71,-76.2,66.2,6.93
468,Darhan,88,MN,73,49.49,105.92,42.16,8.86
469,Baglan,90,GB,87,51.62,-3.81,48.2,6.93
470,Istanbul,0,TR,71,41.01,28.95,51.8,11.41
471,Itoman,75,JP,60,26.12,127.67,69.8,13.87
472,Norden,75,DE,100,53.59,7.21,51.8,3.36
473,Kapuskasing,90,CA,73,49.42,-82.43,21.2,14.99
474,Trairi,12,BR,100,-3.28,-39.27,80.95,7.74
475,Coquimbo,90,CL,82,-29.95,-71.34,57.2,2.24
476,Thinadhoo,48,MV,100,0.53,72.93,80.68,3.71
477,Nantucket,90,US,100,41.28,-70.1,39.2,23.04
478,Taoudenni,0,ML,24,22.68,-3.98,60.34,12.21
479,Yerkoy,0,TR,41,39.64,34.47,49.09,3.94
480,Kibondo,64,TZ,97,-3.59,30.72,65.11,4.16
481,Saurimo,80,AO,92,-9.66,20.4,66.73,3.71
482,Kabompo,0,ZM,87,-13.6,24.21,68.53,6.96
483,Grafton,0,AU,64,-29.69,152.93,76.9,2.04
484,Arlit,0,NE,23,18.74,7.39,60.43,5.5
485,Belyy Yar,0,RU,25,53.6,91.39,50.0,6.71
486,Ayan,0,TR,42,40.67,33.6,47.47,2.82
487,Kristinehamn,90,SE,80,59.31,14.11,41.0,4.7
488,Marsa Matruh,0,EG,45,31.35,27.25,66.2,10.29
489,Kontagora,0,NG,85,10.4,5.47,74.65,8.52
490,North Platte,1,US,78,41.12,-100.77,17.6,3.71
491,Laguna,0,MX,58,27.52,-110.01,63.85,2.26
492,Nushki,0,PK,61,29.55,66.02,71.95,5.73
493,Dondo,20,MZ,94,-19.62,34.74,73.4,14.0
494,Washington DC.,90,US,100,38.9,-77.04,57.2,13.87
495,Kihei,40,US,83,20.76,-156.45,75.2,19.46
496,Mpwapwa,92,TZ,100,-6.35,36.49,64.3,3.6
497,Khvatovka,0,RU,95,52.36,46.55,35.95,6.4
498,Piterka,0,RU,60,50.68,47.44,51.97,7.52
499,Viesca,0,MX,21,25.34,-102.81,44.05,2.82
500,Mae Sai,20,MM,66,20.44,99.89,86.0,2.24
501,Bandarbeyla,12,SO,100,9.49,50.81,84.28,3.71
502,Ozernovskiy,88,RU,85,51.5,156.52,31.0,11.43
503,Sistranda,0,NO,56,63.73,8.83,44.6,18.34
504,Kalianget,48,ID,90,-7.74,113.68,84.1,3.83
505,Dalvik,75,SE,93,57.79,14.13,44.6,2.24
506,Camargo,0,MX,9,27.69,-105.17,55.3,8.75
507,Najran,0,SA,31,17.54,44.22,77.0,4.7
508,General Pico,32,AR,77,-35.66,-63.75,70.87,18.37
509,Camopi,92,GF,98,3.17,-52.33,73.12,2.37
510,Katangli,24,RU,81,51.71,143.23,35.32,3.15
511,Santa Maria,0,BR,89,-29.69,-53.81,63.31,8.3
512,Batamshinskiy,0,KZ,52,50.56,58.27,46.4,15.66
513,Saint Stephen,90,US,73,45.7,-94.27,24.8,8.05
514,Sola,75,NO,81,58.89,5.65,46.4,8.41
515,Curup,76,ID,97,-3.47,102.53,75.64,2.48
516,Quelimane,75,MZ,94,-17.88,36.89,73.4,6.93
517,Svetlogorsk,32,RU,52,53.14,59.15,42.8,13.42
518,Manicore,44,BR,95,-5.81,-61.3,74.65,1.92
519,Turinsk,64,RU,57,58.04,63.7,30.19,9.98
520,Hokitika,92,NZ,96,-42.72,170.96,57.82,13.22
521,Fairlie,1,US,52,33.31,-95.96,44.6,3.36
522,Am Timan,0,TD,21,11.04,20.28,82.03,7.4
523,Kysyl-Syr,48,RU,67,63.9,122.77,36.67,9.08
524,Korgen,0,NO,74,66.08,13.83,39.2,2.24
525,Nokaneng,0,BW,50,-19.66,22.19,70.69,12.55
526,Presidente Medici,0,BR,90,-11.18,-61.9,71.23,2.93
527,Leon,75,US,74,40.74,-93.75,28.4,14.99
528,Camaguey,20,CU,88,21.38,-77.92,71.6,4.7
529,Lengshuijiang,92,CN,69,27.66,111.45,64.12,2.26
530,Sechura,0,PE,91,-5.56,-80.82,67.81,6.17
531,Weyburn,44,CA,59,49.67,-103.85,29.38,16.24
532,Camacha,20,PT,87,33.08,-16.33,60.8,2.24
533,LaBelle,40,US,77,26.76,-81.44,69.8,6.93
534,Dingle,20,PH,50,11.0,122.67,90.58,13.44
535,Pacifica,75,US,81,37.61,-122.49,53.6,8.05
536,Ilebo,48,CD,92,-4.33,20.59,75.28,2.37
537,Miandrivazo,0,MG,74,-19.53,45.46,78.43,4.05
538,Mountain Home,90,US,47,43.13,-115.69,60.8,19.46
539,Almendralejo,0,ES,93,38.68,-6.41,46.4,6.93
540,Xiaoweizhai,56,CN,78,26.23,107.51,59.08,3.49
541,Alice Springs,0,AU,23,-23.7,133.88,82.4,5.82
542,Hirado,75,JP,40,33.32,129.49,68.0,4.7
543,Gamba,0,CN,92,28.28,88.52,29.38,1.92
544,Ziro,20,IN,54,27.54,93.82,84.2,3.36
545,Gazanjyk,92,TM,100,39.24,55.52,43.87,4.61
546,Cockburn Town,56,TC,97,21.46,-71.14,78.25,21.72
547,Fukue,75,JP,48,35.03,136.69,64.4,11.41
548,Luganville,68,VU,100,-15.51,167.18,80.32,15.01
549,Sorong,56,ID,100,-0.86,131.25,84.01,4.61
550,Talcahuano,75,CL,100,-36.72,-73.12,55.4,2.24
551,Gumla,0,IN,37,23.04,84.54,96.25,5.73
552,Monte Santo,0,BR,76,-10.44,-39.33,69.7,8.97
553,Athabasca,92,CA,95,54.72,-113.29,35.41,8.75
554,Lao Cai,92,VN,97,22.48,103.95,61.6,2.15
555,Meulaboh,56,ID,100,4.14,96.13,83.11,6.96
556,Biak,80,ID,89,-0.91,122.88,83.92,2.48
557,Bandar-e Anzali,90,IR,81,37.47,49.46,48.2,4.7
558,Burley,1,US,30,42.54,-113.79,60.8,10.29
559,Tubuala,20,PA,94,9.52,-79.03,77.0,2.24
560,Lasa,0,CY,47,34.92,32.53,77.0,9.17
561,Sambava,92,MG,100,-14.27,50.17,77.98,17.47
562,Linhares,76,BR,94,-19.38,-40.06,72.49,5.39
563,Ulaangom,68,MN,90,49.98,92.07,40.9,2.93
564,Ruidoso,1,US,19,33.33,-105.67,59.0,6.93
565,Hlubocky,92,CZ,100,49.62,17.39,59.0,3.36
566,Ajdabiya,36,LY,62,30.75,20.22,70.6,11.32
567,Kalmunai,68,LK,79,7.42,81.82,87.16,4.94
568,Anadyr,90,RU,95,64.73,177.51,33.8,33.55
569,Eyl,48,SO,100,7.98,49.82,82.21,2.59
570,Swellendam,20,ZA,88,-34.02,20.44,64.4,10.29
571,Girov,0,RO,71,46.96,26.5,51.8,20.8
572,Naze,36,NG,97,5.43,7.07,75.1,5.73
573,Yulara,8,AU,17,-25.24,130.99,89.6,11.41
574,Elko,92,US,20,40.83,-115.76,55.48,14.67
575,Seybaplaya,5,MX,68,19.65,-90.67,71.6,11.41
576,Fomboni,12,KM,100,-12.28,43.74,83.47,11.1
577,Mackenzie,90,CA,55,55.34,-123.09,37.4,8.05
578,Tahe,0,CN,29,52.34,124.71,59.17,4.61
579,Vetluzhskiy,0,RU,73,58.39,45.47,37.3,3.6
580,Manyana,40,AU,43,-35.26,150.51,73.4,11.41
581,Grenaa,90,DK,100,56.42,10.88,44.6,3.36
582,Myitkyina,0,MM,39,25.38,97.4,87.25,2.59
583,Sambir,0,UA,81,49.52,23.2,53.6,6.71
584,Itaituba,20,BR,100,-4.26,-55.99,71.23,2.04
585,Songea,75,TZ,100,-10.68,35.65,66.2,3.27
586,Tsaratanana,0,MG,56,-16.8,47.65,80.95,9.31
587,Rurrenabaque,0,BO,90,-14.44,-67.53,67.81,2.48
588,Kokuy,88,RU,91,52.2,117.55,42.79,6.96
589,Takoradi,80,GH,98,4.89,-1.75,81.22,8.19
590,Portland,90,US,75,45.52,-122.67,46.4,20.8
591,Novobirilyussy,88,RU,79,56.95,90.69,40.0,13.67
592,Pitsunda,75,GE,66,43.16,40.34,55.4,11.18
593,Xichang,76,CN,66,27.88,102.25,53.41,1.7
594,Espanola,92,CA,82,46.27,-81.77,31.54,15.68
595,Hobyo,36,SO,93,5.35,48.53,82.66,9.75
596,Nioro,0,GM,43,13.79,-15.05,71.05,7.18
597,Masyaf,0,SY,67,35.06,36.34,60.8,2.24
598,Keuruu,90,FI,86,62.26,24.71,39.2,2.24
599,Broken Hill,92,AU,51,-31.97,141.45,75.1,9.42
600,Koratagere,40,IN,62,13.52,77.24,84.2,2.24
601,Rocha,68,UY,80,-34.48,-54.34,64.03,8.63
602,Kukes,76,AL,51,42.08,20.42,57.1,2.26
603,Kayan,40,MM,53,16.91,96.56,95.0,6.93
604,Gombe,32,NG,70,10.28,11.17,80.59,12.44
605,Gunjur,0,GM,82,13.18,-16.76,66.2,4.7
606,Winslow,20,GB,93,51.94,-0.88,46.4,8.05
607,Pouebo,48,NC,70,-20.4,164.57,80.5,8.86
608,Labuhan,68,ID,80,-2.54,115.51,82.57,3.04
609,Pimentel,64,BR,99,-3.7,-45.5,70.69,3.15
610,Touros,88,BR,100,-5.2,-35.46,74.83,9.42
611,Maragogi,100,BR,100,-9.01,-35.22,75.19,5.61
612,Johi,80,PK,27,26.69,67.61,92.83,8.86
613,Luanda,40,AO,88,-8.83,13.24,77.0,2.24
614,Maxixe,76,MZ,84,-23.86,35.35,77.98,12.88
615,Homer,90,US,75,59.64,-151.54,42.8,1.14
616,Fairmont,12,US,86,40.64,-97.59,30.2,10.29
617,Laiwu,0,CN,58,36.19,117.66,64.93,8.97
618,Benguela,75,AO,83,-12.58,13.4,78.8,4.16
619,Ambon,75,FR,93,47.55,-2.56,48.2,4.7
620,Tonantins,68,BR,99,-2.86,-67.77,73.75,2.48
621,Nicolas Bravo,0,MX,69,24.39,-104.74,42.16,1.14
622,Axim,80,GH,98,4.87,-2.24,82.21,12.21
623,Seminole,1,US,23,32.72,-102.64,53.6,8.05
624,Starozhilovo,80,RU,68,54.23,39.91,50.62,6.96
625,Kaeo,0,NZ,82,-35.1,173.78,66.82,10.87
626,Ballybofey,40,IE,87,54.8,-7.78,48.2,13.87
627,Stokmarknes,0,NO,95,68.56,14.91,42.8,3.36
628,Canutama,44,BR,94,-6.53,-64.38,74.2,2.82
629,Bernalillo,1,US,24,35.3,-106.55,55.4,8.05
630,Gazimurskiy Zavod,88,RU,59,51.55,118.33,47.47,8.75
631,Beyneu,80,KZ,43,45.32,55.19,53.95,4.94
632,Ferrol,20,ES,87,43.48,-8.23,46.4,9.17
633,Fort-Shevchenko,0,KZ,87,44.51,50.26,51.25,5.95
634,Mollendo,0,PE,81,-17.03,-72.02,49.81,1.36
635,Kourou,40,GF,83,5.16,-52.64,78.8,8.05
636,Ankazobe,75,MG,82,-18.32,47.12,66.2,4.7
637,Shushtar,90,IR,77,32.05,48.86,64.4,2.24
638,Banff,64,CA,89,51.18,-115.57,26.5,1.92
639,Iberia,0,PE,77,-11.41,-69.49,74.65,3.71
640,Azul,12,AR,80,-36.78,-59.86,60.07,10.54
641,Owo,92,NG,95,7.2,5.59,76.0,5.61
642,Santiago de Cuba,20,CU,78,20.03,-75.83,80.6,5.82
643,Boca do Acre,24,BR,94,-8.76,-67.39,73.03,2.59
644,Baiima,92,SL,94,8.11,-11.85,74.92,3.38
645,Methoni,75,GR,55,36.82,21.7,66.2,4.7
646,Namatanai,64,PG,94,-3.66,152.44,85.45,8.41
647,Sahy,0,UA,55,46.6,32.79,57.1,4.72
648,Vao,92,EE,100,59.1,26.19,49.72,4.38
649,Lishui,88,CN,64,28.45,119.91,59.17,2.48
650,Marsabit,80,KE,98,2.34,37.99,71.77,4.27
651,Cardston,1,CA,91,49.2,-113.32,35.6,12.75
652,Mizdah,0,LY,62,31.45,12.98,58.63,8.97
653,Fuxin,0,CN,30,42.02,121.65,73.48,16.91
654,Abha,0,SA,40,18.22,42.5,68.0,9.17
655,Zenzeli,0,RU,52,45.92,47.05,54.67,7.07
656,Ambovombe,0,MG,79,-25.18,46.09,74.83,3.15
657,Boa Vista,75,BR,83,2.82,-60.67,78.8,8.05
658,Coffs Harbour,0,AU,57,-30.3,153.13,78.8,13.87
659,Luba,32,PH,92,17.32,120.7,80.68,3.83
660,Lumphat,68,KH,47,13.5,106.97,93.55,3.04
661,La Sarre,92,CA,82,48.8,-79.2,23.44,16.8
662,Liverpool,75,GB,93,53.41,-2.98,48.2,4.7
663,Copala,0,MX,100,16.61,-98.97,68.26,3.15
664,Bathsheba,40,BB,83,13.22,-59.52,78.8,17.22
665,Dongsheng,8,CN,69,29.72,112.52,72.94,4.61
666,Meadow Lake,88,CA,95,54.13,-108.44,35.77,6.29
667,Cuamba,20,MZ,79,-14.8,36.54,71.95,8.41
668,Sinop,0,TR,70,42.03,35.15,42.8,5.82
669,Fernie,75,CA,75,49.5,-115.06,44.6,3.36
670,Pitimbu,75,BR,94,-7.47,-34.81,73.4,5.82
671,Mankono,8,CI,93,8.06,-6.19,71.86,6.62
672,Macia,88,MZ,83,-25.03,33.09,72.58,8.63
673,Praia,76,BR,95,-20.25,-43.81,62.32,4.72
674,Mongo,12,CF,80,4.83,22.92,75.82,4.38
675,Eskil,0,TR,74,38.4,33.41,50.17,5.17
676,Beringovskiy,88,RU,94,63.05,179.32,32.98,26.53
677,Penzance,75,GB,87,50.12,-5.53,48.2,12.75
678,Lincoln,20,GB,100,53.23,-0.54,50.0,14.99
679,Magalia,1,US,87,39.81,-121.58,50.0,14.99
680,Kulunda,12,RU,61,52.57,78.94,51.25,16.8
681,Dingli,20,MT,87,35.86,14.38,59.0,14.99
682,Aguas Vermelhas,88,BR,100,-15.75,-41.46,66.55,4.94
683,Half Moon Bay,75,US,81,37.46,-122.43,53.6,8.05
684,Mwene-Ditu,32,CD,94,-7.01,23.45,67.0,4.94
685,Songkhla,20,TH,70,7.2,100.6,91.4,6.93
686,Aleksandrov Gay,8,RU,72,50.14,48.57,50.98,7.96
687,Ketchikan,1,US,70,55.34,-131.65,44.6,4.7
688,Sacramento,20,US,81,38.58,-121.49,51.8,5.82
689,Chulman,92,RU,70,56.84,124.9,41.71,6.4
690,Westerly,90,US,93,41.38,-71.83,39.2,17.22
691,Mangan,8,IN,55,27.5,88.54,47.83,1.59
692,Shuyskoye,8,RU,80,59.37,41.03,37.12,4.72
693,Tricase,40,IT,77,39.93,18.36,60.8,9.17
694,Pizarro,56,CO,96,4.95,-77.37,78.43,2.37
695,Roebourne,20,AU,11,-20.77,117.15,100.93,4.83
696,Saint-Georges,92,CA,51,46.12,-70.67,25.6,9.53
697,Koslan,80,RU,69,63.46,48.9,32.98,8.41
698,Paamiut,8,GL,100,61.99,-49.67,27.4,23.85
699,Moerai,64,PF,100,-22.43,-151.33,78.88,13.44
700,Soe,92,EE,93,57.91,26.05,50.0,3.36
701,Cornwall,90,CA,95,45.02,-74.73,32.0,20.8
702,Srednekolymsk,0,RU,57,67.46,153.71,24.43,3.15
703,Mana,40,RS,39,43.52,20.24,66.2,12.75
704,Aleppo,0,SY,46,36.2,37.17,64.93,6.17
705,Abaza,24,RU,57,52.65,90.1,49.81,2.93
706,Gravdal,75,NO,87,59.79,5.78,44.6,4.7
707,Punta Cardon,24,VE,80,11.61,-70.22,78.97,15.01
708,Rafsanjan,24,IR,45,30.4,55.99,63.4,2.71
709,Slave Lake,90,CA,78,55.28,-114.77,35.6,2.24
710,Oksfjord,0,NO,100,70.24,22.35,32.0,2.71
711,Mantua,20,IT,93,45.16,10.79,51.8,5.82
712,Henties Bay,12,NA,89,-22.12,14.28,70.78,7.96
713,Mgandu,92,TZ,99,-5.96,34.11,63.4,4.61
714,Micheweni,92,TZ,100,-4.97,39.83,77.08,21.83
715,Rio Bueno,20,JM,69,18.47,-77.46,78.8,3.36
716,Umm Lajj,0,SA,69,25.02,37.27,78.43,5.73
717,Kiama,40,AU,43,-34.67,150.86,73.4,11.41
718,Waingapu,36,ID,93,-9.65,120.26,83.56,9.42
719,Yueyang,64,CN,64,29.36,113.12,69.52,4.16
720,Fare,92,PF,96,-16.7,-151.02,83.47,13.0
721,San Policarpo,88,PH,88,12.18,125.51,83.47,11.43
722,La Libertad,0,PE,62,-16.38,-71.56,55.4,5.82
723,Dhali,40,IN,58,10.5,77.17,87.8,6.93
724,Xinqing,8,CN,38,48.28,129.53,54.22,7.07
725,Veraval,90,FR,93,49.65,0.71,46.4,3.36
726,Esso,68,RU,80,55.93,158.7,20.92,2.93
727,Horta,0,ES,87,41.43,2.16,57.2,2.24
728,Boyolangu,20,ID,81,-8.09,111.9,85.45,3.38
729,Barinas,88,VE,95,8.64,-70.23,72.4,8.63
730,Kuytun,0,RU,48,54.34,101.51,47.47,5.06
731,Kiunga,32,PG,84,-6.12,141.3,84.28,2.37
732,Clovis,0,US,62,36.83,-119.7,62.6,9.17
733,Nuuk,0,GL,92,64.17,-51.74,19.4,11.41
734,Kushiro,75,JP,69,43.11,144.15,39.2,16.11
735,Merauke,12,ID,76,-8.49,140.4,88.69,14.0
736,Kadirli,0,TR,55,37.37,36.09,61.87,5.39
737,Zhigalovo,64,RU,47,54.81,105.15,42.88,3.94
738,Mecca,0,SA,57,21.43,39.83,80.6,3.6
739,Harper,1,US,36,30.3,-99.24,59.0,3.36
740,Manohar Thana,0,IN,23,24.24,76.8,98.95,9.86
741,Jesi,40,IT,87,43.52,13.24,53.6,4.7
742,Shimoda,40,JP,42,34.7,138.93,62.6,12.75
743,Zhangye,0,CN,75,38.94,100.46,63.67,3.83
744,Nador,20,MA,82,35.17,-2.93,59.0,9.17
745,Rjukan,90,NO,75,59.88,8.59,33.8,3.36
746,Wuchi,8,NG,62,13.33,5.43,71.23,1.92
747,Bud,0,NO,86,62.91,6.91,44.6,6.93
748,Pangai,40,TO,61,-19.8,-174.35,80.6,11.41
749,Pacific Grove,90,US,100,36.62,-121.92,51.8,5.82
750,Salamiyah,0,SY,25,35.01,37.05,65.65,5.73
751,Canterbury,56,GB,93,51.28,1.08,48.2,13.87
752,Sibolga,92,ID,97,1.74,98.78,74.47,2.59
753,Manggar,44,ID,96,-2.88,108.27,84.73,4.16
754,Haikou,90,CN,88,20.04,110.34,69.8,11.18
755,Saint-Agapit,90,CA,42,46.56,-71.44,28.4,16.11
756,Pleasanton,40,US,100,37.66,-121.87,53.6,9.17
757,Ekibastuz,20,KZ,68,51.72,75.32,50.26,15.46
758,Bossangoa,12,CF,74,6.5,17.45,76.72,11.65
759,Schotten,0,DE,100,50.5,9.12,50.0,4.7
760,San Andres,12,PH,94,13.32,122.68,84.82,7.74
761,Hanzhong,0,CN,57,33.08,107.03,67.81,2.93
762,Atocha,75,EC,93,-1.22,-78.6,51.8,5.82
763,Kortkeros,0,RU,71,61.81,51.56,32.0,8.95
764,Snyder,1,US,25,32.72,-100.92,51.8,5.82
765,Taft,88,PH,88,11.9,125.42,83.47,11.43
766,Valparaiso,90,US,86,41.47,-87.06,35.6,14.99
767,Luwuk,80,ID,89,-0.95,122.79,83.92,2.48
768,Avera,90,US,66,33.19,-82.53,53.6,12.75
769,Qaqortoq,5,GL,35,60.72,-46.03,26.6,10.29
770,Medowie,0,AU,35,-32.73,151.85,84.2,17.22
771,Pervomayskiy,44,RU,77,53.24,40.29,51.07,4.61
772,Khonsa,36,IN,68,26.99,95.51,74.65,1.36
773,Malanje,80,AO,100,-9.54,16.35,65.02,3.15
774,Cruzeiro do Sul,90,BR,94,-7.63,-72.67,75.2,4.7
775,Palmerston,90,CA,100,43.83,-80.85,33.8,24.16
776,Zacualtipan,44,MX,82,20.65,-98.6,49.27,1.92
777,Santa Rosa de Aguan,88,HN,100,15.95,-85.71,75.82,2.37
778,Goksun,0,TR,58,38.02,36.5,53.6,6.93
779,Virginia Beach,90,US,83,36.85,-75.98,75.2,18.34
